[
  {
    "name": "Noi Bai International Airport",
    "code": "HAN",
    "type": "airport",
    "order": 1,
    "address": "Noi Bai, Ha Noi",
    "province": "Ha Noi",
    "city": "Ha Noi",
    "district": "Cau Giay",
    "ward": "Cau Giay",
    "latitude": 21.218333,
    "longitude": 105.806944
  },
  {
    "name": "Tan Son Nhat International Airport",
    "code": "SGN",
    "type": "airport",
    "order": 2,
    "address": "Tan Son Nhat, Ho Chi Minh City",
    "province": "Ho Chi Minh",
    "city": "Ho Chi Minh",
    "district": "Tan Binh",
    "ward": "Tan Binh",
    "latitude": 10.865556,
    "longitude": 106.652222
  },
  {
    "name": "Da Nang International Airport",
    "code": "DAD",
    "type": "airport",
    "order": 3,
    "address": "Da Nang, Da Nang",
    "province": "Da Nang",
    "city": "Da Nang",
    "district": "Hai Chau",
    "ward": "Hai Chau",
    "latitude": 16.043889,
    "longitude": 108.198611
  },
  {
    "name": "Cam Ranh International Airport",
    "code": "CXR",
    "type": "airport",
    "order": 4,
    "address": "Cam Ranh, Khanh Hoa",
    "province": "Khanh Hoa",
    "city": "Cam Ranh",
    "district": "Cam Ranh",
    "ward": "Cam Ranh",
    "latitude": 11.983611,
    "longitude": 109.224167
  },
  {
    "name": "Phu Quoc International Airport",
    "code": "PQC",
    "type": "airport",
    "order": 5,
    "address": "Phu Quoc, Kien Giang",
    "province": "Kien Giang",
    "city": "Phu Quoc",
    "district": "Phu Quoc",
    "ward": "Phu Quoc",
    "latitude": 10.226667,
    "longitude": 103.990278
  },
  {
    "name": "Cat Bi International Airport",
    "code": "HPH",
    "type": "airport",
    "order": 6,
    "address": "Cat Bi, Hai Phong",
    "province": "Hai Phong",
    "city": "Hai Phong",
    "district": "Cat Bi",
    "ward": "Cat Bi",
    "latitude": 20.819444,
    "longitude": 106.725278
  },
  {
    "name": "Can Tho International Airport",
    "code": "VCA",
    "type": "airport",
    "order": 7,
    "address": "Can Tho, Can Tho",
    "province": "Can Tho",
    "city": "Can Tho",
    "district": "Can Tho",
    "ward": "Can Tho",
    "latitude": 9.993889,
    "longitude": 105.765278
  },
  {
    "name": "Lien Khuong International Airport",
    "code": "DLI",
    "type": "airport",
    "order": 8,
    "address": "Lien Khuong, Quang Ngai",
    "province": "Quang Ngai",
    "city": "Lien Khuong",
    "district": "Lien Khuong",
    "ward": "Lien Khuong",
    "latitude": 15.217222,
    "longitude": 108.035278
  },
  {
    "name": "Phu Bai International Airport",
    "code": "HUI",
    "type": "airport",
    "order": 9,
    "address": "Phu Bai, Thua Thien Hue",
    "province": "Thua Thien Hue",
    "city": "Phu Bai",
    "district": "Phu Bai",
    "ward": "Phu Bai",
    "latitude": 16.536389,
    "longitude": 107.898611
  },
  {
    "name": "Van Don International Airport",
    "code": "VDO",
    "type": "airport",
    "order": 10,
    "address": "Van Don, Quang Ninh",
    "province": "Quang Ninh",
    "city": "Van Don",
    "district": "Van Don",
    "ward": "Van Don",
    "latitude": 21.461944,
    "longitude": 107.514722
  },
  {
    "name": "Vinh International Airport",
    "code": "VII",
    "type": "airport",
    "order": 11,
    "address": "Vinh, Nghe An",
    "province": "Nghe An",
    "city": "Vinh",
    "district": "Vinh",
    "ward": "Vinh",
    "latitude": 18.737778,
    "longitude": 105.670833
  }
]